[
  {
    "title": "Barcelona Game Dev Meetup",
    "description": "A meetup for game developers in Barcelona to network and share ideas.",
    "category": ["Meeting"],
    "location": "Plaça de Catalunya, Barcelona",
    "latitude": 41.3870154,
    "longitude": 2.1700471,
    "start_date": "2023-11-01T10:00:00Z",
    "end_date": "2023-11-01T12:00:00Z",
    "category_color": "#FF5733"
  },
  {
    "title": "Indie Game Developers Conference",
    "description": "A conference for indie game developers to showcase their projects.",
    "category": ["Conference"],
    "location": "Fira Barcelona, Barcelona",
    "latitude": 41.354839,
    "longitude": 2.127713,
    "start_date": "2023-11-05T09:00:00Z",
    "end_date": "2023-11-05T17:00:00Z",
    "category_color": "#33FF57"
  },
  {
    "title": "Barcelona Game Jam 2023",
    "description": "A 48-hour game jam event in Barcelona.",
    "category": ["Game Jam"],
    "location": "Media-TIC, Barcelona",
    "latitude": 41.4036299,
    "longitude": 2.1918129,
    "start_date": "2023-11-10T18:00:00Z",
    "end_date": "2023-11-12T18:00:00Z",
    "category_color": "#3357FF"
  },
  {
    "title": "Barcelona Esports Championship",
    "description": "A competitive esports event featuring top teams.",
    "category": ["Competition"],
    "location": "Palau Sant Jordi, Barcelona",
    "latitude": 41.363576,
    "longitude": 2.152574,
    "start_date": "2023-11-15T10:00:00Z",
    "end_date": "2023-11-15T20:00:00Z",
    "category_color": "#FF33A1"
  },
  {
    "title": "Game Dev Networking Night",
    "description": "An evening event for game developers to network and collaborate.",
    "category": ["Meeting"],
    "location": "Razzmatazz, Barcelona",
    "latitude": 41.3985182,
    "longitude": 2.1917991,
    "start_date": "2023-11-20T19:00:00Z",
    "end_date": "2023-11-20T22:00:00Z",
    "category_color": "#FF5733"
  },
  {
    "title": "Barcelona VR/AR Conference",
    "description": "A conference focused on VR and AR technologies in gaming.",
    "category": ["Conference"],
    "location": "CCIB, Barcelona",
    "latitude": 41.410247,
    "longitude": 2.222526,
    "start_date": "2023-11-25T09:00:00Z",
    "end_date": "2023-11-25T17:00:00Z",
    "category_color": "#33FF57"
  },
  {
    "title": "Barcelona Winter Game Jam",
    "description": "A winter-themed game jam event in Barcelona.",
    "category": ["Game Jam"],
    "location": "Canòdrom, Barcelona",
    "latitude": 41.428267,
    "longitude": 2.182473,
    "start_date": "2023-12-01T18:00:00Z",
    "end_date": "2023-12-03T18:00:00Z",
    "category_color": "#3357FF"
  },
  {
    "title": "Barcelona Gaming Expo",
    "description": "An expo showcasing the latest in gaming technology and software.",
    "category": ["Conference"],
    "location": "La Farga, Barcelona",
    "latitude": 41.359556,
    "longitude": 2.099494,
    "start_date": "2023-12-05T09:00:00Z",
    "end_date": "2023-12-05T17:00:00Z",
    "category_color": "#33FF57"
  },
  {
    "title": "Barcelona Indie Game Jam",
    "description": "A game jam event for indie game developers.",
    "category": ["Game Jam"],
    "location": "Espai Jove La Fontana, Barcelona",
    "latitude": 41.4036299,
    "longitude": 2.153403,
    "start_date": "2023-12-10T18:00:00Z",
    "end_date": "2023-12-12T18:00:00Z",
    "category_color": "#3357FF"
  },
  {
    "title": "Barcelona Pro Gaming Tournament",
    "description": "A professional gaming tournament with cash prizes.",
    "category": ["Competition"],
    "location": "Camp Nou, Barcelona",
    "latitude": 41.380896,
    "longitude": 2.12282,
    "start_date": "2023-12-15T10:00:00Z",
    "end_date": "2023-12-15T20:00:00Z",
    "category_color": "#FF33A1"
  },
  {
    "title": "Game Dev Brunch",
    "description": "A casual brunch event for game developers to discuss projects.",
    "category": ["Meeting"],
    "location": "Brunch Electronik, Barcelona",
    "latitude": 41.385064,
    "longitude": 2.173403,
    "start_date": "2023-12-20T10:00:00Z",
    "end_date": "2023-12-20T12:00:00Z",
    "category_color": "#FF5733"
  },
  {
    "title": "Barcelona Game Dev Conference",
    "description": "A conference for game developers to learn and share knowledge.",
    "category": ["Conference"],
    "location": "Hotel Arts, Barcelona",
    "latitude": 41.387917,
    "longitude": 2.195694,
    "start_date": "2023-12-25T09:00:00Z",
    "end_date": "2023-12-25T17:00:00Z",
    "category_color": "#33FF57"
  },
  {
    "title": "Barcelona Spring Game Jam",
    "description": "A spring-themed game jam event in Barcelona.",
    "category": ["Game Jam"],
    "location": "Fabra i Coats, Barcelona",
    "latitude": 41.429262,
    "longitude": 2.189532,
    "start_date": "2024-01-01T18:00:00Z",
    "end_date": "2024-01-03T18:00:00Z",
    "category_color": "#3357FF"
  },
  {
    "title": "Barcelona Gaming Championship",
    "description": "A championship event for competitive gamers.",
    "category": ["Competition"],
    "location": "Estadi Olímpic Lluís Companys, Barcelona",
    "latitude": 41.364015,
    "longitude": 2.155007,
    "start_date": "2024-01-05T10:00:00Z",
    "end_date": "2024-01-05T20:00:00Z",
    "category_color": "#FF33A1"
  },
  {
    "title": "Game Dev Coffee Chat",
    "description": "A casual coffee chat for game developers to discuss ideas.",
    "category": ["Meeting"],
    "location": "Café de l'Opera, Barcelona",
    "latitude": 41.380896,
    "longitude": 2.173403,
    "start_date": "2024-01-10T10:00:00Z",
    "end_date": "2024-01-10T12:00:00Z",
    "category_color": "#FF5733"
  },
  {
    "title": "Barcelona Game Dev Summit",
    "description": "A summit for game developers to discuss industry trends.",
    "category": ["Conference"],
    "location": "W Barcelona, Barcelona",
    "latitude": 41.368896,
    "longitude": 2.189532,
    "start_date": "2024-01-15T09:00:00Z",
    "end_date": "2024-01-15T17:00:00Z",
    "category_color": "#33FF57"
  },
  {
    "title": "Barcelona Summer Game Jam",
    "description": "A summer-themed game jam event in Barcelona.",
    "category": ["Game Jam"],
    "location": "Casa Batlló, Barcelona",
    "latitude": 41.39164,
    "longitude": 2.164832,
    "start_date": "2024-01-20T18:00:00Z",
    "end_date": "2024-01-22T18:00:00Z",
    "category_color": "#3357FF"
  },
  {
    "title": "Barcelona Gaming League",
    "description": "A league event for competitive gamers.",
    "category": ["Competition"],
    "location": "Pavelló Blaugrana, Barcelona",
    "latitude": 41.380896,
    "longitude": 2.12282,
    "start_date": "2024-01-25T10:00:00Z",
    "end_date": "2024-01-25T20:00:00Z",
    "category_color": "#FF33A1"
  },
  {
    "title": "Game Dev Lunch Meetup",
    "description": "A lunch meetup for game developers to network and share ideas.",
    "category": ["Meeting"],
    "location": "El Nacional, Barcelona",
    "latitude": 41.39164,
    "longitude": 2.164832,
    "start_date": "2024-01-30T12:00:00Z",
    "end_date": "2024-01-30T14:00:00Z",
    "category_color": "#FF5733"
  },
  {
    "title": "Barcelona Game Dev Expo",
    "description": "An expo for game developers to showcase their projects.",
    "category": ["Conference"],
    "location": "Palau de Congressos, Barcelona",
    "latitude": 41.39164,
    "longitude": 2.164832,
    "start_date": "2024-02-05T09:00:00Z",
    "end_date": "2024-02-05T17:00:00Z",
    "category_color": "#33FF57"
  },
  {
    "title": "Barcelona Autumn Game Jam",
    "description": "An autumn-themed game jam event in Barcelona.",
    "category": ["Game Jam"],
    "location": "Museu del Disseny, Barcelona",
    "latitude": 41.39164,
    "longitude": 2.164832,
    "start_date": "2024-02-10T18:00:00Z",
    "end_date": "2024-02-12T18:00:00Z",
    "category_color": "#3357FF"
  },
  {
    "title": "Barcelona Gaming Masters",
    "description": "A masters event for top competitive gamers.",
    "category": ["Competition"],
    "location": "Gran Teatre del Liceu, Barcelona",
    "latitude": 41.380896,
    "longitude": 2.173403,
    "start_date": "2024-02-15T10:00:00Z",
    "end_date": "2024-02-15T20:00:00Z",
    "category_color": "#FF33A1"
  }
]
